[
  {
    "id": 1782835467498,
    "stationName": "Seaoil Zabarte",
    "lat": 14.748837192505928,
    "lng": 121.04493832345723,
    "prices": {
      "unleaded": 69.35,
      "premium": 70.35,
      "xcs": 0,
      "diesel": 63
    },
    "updatedAt": "07/01 01:05"
  },
  {
    "id": 1782835529250,
    "stationName": "Jade Blue Fuel Zabarte",
    "lat": 14.737225853812786,
    "lng": 121.04786083352941,
    "prices": {
      "unleaded": 0,
      "premium": 67.9,
      "xcs": 0,
      "diesel": 61.8
    },
    "updatedAt": "07/01 00:05"
  },
  {
    "id": 1782835620338,
    "stationName": "Uno Fuel Zabarte",
    "lat": 14.735828910579745,
    "lng": 121.04796066984945,
    "prices": {
      "unleaded": 68.9,
      "premium": 69.9,
      "xcs": 0,
      "diesel": 62.95
    },
    "updatedAt": "07/01 00:07"
  },
  {
    "id": 1782835841882,
    "stationName": "Unioil Zabarte",
    "lat": 14.733240732092087,
    "lng": 121.0484960904887,
    "prices": {
      "unleaded": 71.8,
      "premium": 74.8,
      "xcs": 79.8,
      "diesel": 70.1
    },
    "updatedAt": "07/01 00:12"
  },
  {
    "id": 1782836057842,
    "stationName": "Astro Fuel",
    "lat": 14.723031120051616,
    "lng": 121.05043509675765,
    "prices": {
      "unleaded": 68.55,
      "premium": 0,
      "xcs": 0,
      "diesel": 66.7
    },
    "updatedAt": "07/01 00:15"
  },
  {
    "id": 1782836208171,
    "stationName": "CleanFuel ",
    "lat": 14.721316055194087,
    "lng": 121.0517651863661,
    "prices": {
      "unleaded": 72.4,
      "premium": 72.9,
      "xcs": 0,
      "diesel": 65.8
    },
    "updatedAt": "07/01 00:16"
  },
  {
    "id": 1782836304826,
    "stationName": "Jetti Brittany",
    "lat": 14.72447301825873,
    "lng": 121.05519876148006,
    "prices": {
      "unleaded": 0,
      "premium": 66.6,
      "xcs": 69.1,
      "diesel": 66.7
    },
    "updatedAt": "07/01 00:18"
  },
  {
    "id": 1782836374995,
    "stationName": "Petro Gazz",
    "lat": 14.722553277369107,
    "lng": 121.0531105765559,
    "prices": {
      "unleaded": 70.75,
      "premium": 71.75,
      "xcs": 0,
      "diesel": 63.3
    },
    "updatedAt": "07/01 00:19"
  },
  {
    "id": 1782881010880,
    "stationName": "Shell Zabarte",
    "lat": 14.753188615760637,
    "lng": 121.04426565259291,
    "prices": {
      "unleaded": 73.5,
      "premium": 83.2,
      "xcs": 0,
      "diesel": 70.3
    },
    "updatedAt": "07/01 12:43"
  },
  {
    "id": 1782881095967,
    "stationName": "Petron Zabarte",
    "lat": 14.754922466799828,
    "lng": 121.04366943018911,
    "prices": {
      "unleaded": 0,
      "premium": 70.9,
      "xcs": 71.9,
      "diesel": 69.8
    },
    "updatedAt": "07/01 12:44"
  },
  {
    "id": 1782881232711,
    "stationName": "Flying V Old Zabarte Rd",
    "lat": 14.76066045729673,
    "lng": 121.04387434537503,
    "prices": {
      "unleaded": 69.35,
      "premium": 70.35,
      "xcs": 0,
      "diesel": 63.96
    },
    "updatedAt": "07/01 12:47"
  },
  {
    "id": 1782881327887,
    "stationName": "Uno Fuel Samano",
    "lat": 14.761495727249176,
    "lng": 121.04467567278812,
    "prices": {
      "unleaded": 70.4,
      "premium": 71.4,
      "xcs": 0,
      "diesel": 65.1
    },
    "updatedAt": "07/01 12:48"
  },
  {
    "id": 1782881421311,
    "stationName": "PTT Gas Station",
    "lat": 14.756957170168874,
    "lng": 121.05372868296435,
    "prices": {
      "unleaded": 73.7,
      "premium": 74.7,
      "xcs": 0,
      "diesel": 74.9
    },
    "updatedAt": "07/01 12:50"
  }
]